[
  {
    "name": "Imbo Residence No. 2",
    "address": "Jl . Imam Bonjol Desa Pemecutan Kelod, Denpasar Barat - Bali",
    "key": "-LPQobUDJy7QSAz9jFyM"
  },
  {
    "name": "Quest San Hotel",
    "address": "Jl. Mahendratta No. 93, Denpasar, Padangsambian - Bali",
    "city": "Bali",
    "location": {
      "lat": -8.677138,
      "lng": 115.190248
    },
    "key": "-LPQobUTFTc1YB5FM9Ph"
  },
  {
    "name": "Hotel Horison",
    "address": "Jl. Pelajar Pejuang 45 No. 21, Buah Batu",
    "city": "Bandung",
    "location": {
      "lat": -6.934139,
      "lng": 107.624795
    },
    "key": "-LPQobUVjoLc0w35w485"
  },
  {
    "name": "Braga City Walk Lt. 2",
    "address": "Jl. Braga No.99-101, Braga, Sumur Bandung",
    "city": "Bandung",
    "location": {
      "lat": -6.916704,
      "lng": 107.608935
    },
    "key": "-LPQobUYD1-X1x3nk4NC"
  },
  {
    "name": "Graha Tiberias",
    "address": "Jl. Veteran DL II No. 17",
    "city": "Banjarmasin",
    "location": {
      "lat": -3.321081,
      "lng": 114.601302
    },
    "key": "-LPQobU_ug_27pkzDcdm"
  },
  {
    "name": "Hotel GGI (Function Room)",
    "address": "Jl. Duyung, Sei Jodoh, Batu Ampar, Batam",
    "city": "Batam",
    "key": "-LPQobUaHECa2VLsBnvG"
  },
  {
    "name": "Gedung Tiberias Imperium",
    "address": "Superblok Imprium Blok A/01 (Depan Mapoltabes Barelang)",
    "city": "Batam",
    "location": {
      "lat": 1.117698,
      "lng": 104.022952
    },
    "key": "-LPQobUcmjBPnrqUAY8M"
  },
  {
    "name": "Gereja Tiberias Tembesi",
    "address": "Jl. Soeprapto, Kawasan Bisnis Mall Top 100 Blok I 1 No. 12A-12B",
    "city": "Batam",
    "location": {
      "lat": 1.040727,
      "lng": 104.003228
    },
    "key": "-LPQobUee0V0fFApNvdv"
  },
  {
    "name": "Hotel Furia Lt. 5",
    "address": "Jl. Merdeka No. 06 Tanjung Pinang, Kepulauan Riau",
    "city": "Batam",
    "location": {
      "lat": 0.929789,
      "lng": 104.441322
    },
    "key": "-LPQobUgRa06Yd1m5Pw7"
  },
  {
    "name": "Tiberias SCBD District 8 Prosperity Tower Lt.7",
    "location": {
      "lat": -6.227375,
      "lng": 106.80707
    },
    "city": "Jakarta",
    "key": "-LPQobUikBzdUCzYn5nV"
  },
  {
    "name": "Gereja Tiberias Kelapa Gading Nias",
    "address": "Jl. Kelapa Nias Raya Blok HT 60, Jakarta Utara",
    "city": "Jakarta",
    "location": {
      "lat": -6.1507954,
      "lng": 106.903805
    },
    "key": "-LPQobUja0_mU8O97pMR"
  },
  {
    "name": "Plaza Metro Sunter Lt. 3",
    "address": "Jl. Danau Sunter Utara, Jakarta Utara",
    "city": "Jakarta",
    "location": {
      "lat": -6.137031899999999,
      "lng": 106.8731003
    },
    "key": "-LPQobUl1WqNfdbyr9Za"
  },
  {
    "name": "Balai Sarbini-Dome Plaza Semanggi",
    "address": "Jl. Jend. Sudirman Kav. 50, Jakarta Selatan",
    "location": {
      "lat": -6.219678,
      "lng": 106.814514
    },
    "city": "Jakarta",
    "key": "-LPQobUmeQb9MqsagsrE"
  },
  {
    "name": "Podomoro City - Central Park Gedung Office Tower Lt. 40",
    "address": "Jl. Letjend S. Parman Kav. 28, Jakarta Barat",
    "city": "Jakarta",
    "location": {
      "lat": -6.1777448,
      "lng": 106.7910148
    },
    "key": "-LPQobUnafi_ncf4x-82"
  },
  {
    "name": "Ged. Menteng Prada Lt. 4",
    "address": "Jl. Pegangsaan Timur 15 A (Seberang Stasiun KA Cikini), Jakarta Pusat",
    "city": "Jakarta",
    "location": {
      "lat": -6.198441600000001,
      "lng": 106.8421178
    },
    "key": "-LPQobUq-2IfvhRnbiIy"
  },
  {
    "name": "Senayan City Lt. 6",
    "address": "Jl. Asia Afrika Lot. 19, Jakarta Selatan",
    "location": {
      "lat": -6.227198,
      "lng": 106.797181
    },
    "city": "Jakarta",
    "key": "-LPQobUsA9Wmiap1RJ3k"
  },
  {
    "name": "Ged. Graha Kencana Lt. 5",
    "address": "Jl. Raya Perjuangan (sisi tol), Kebon Jeruk, Jakarta Barat",
    "city": "Jakarta",
    "location": {
      "lat": -6.1905872,
      "lng": 106.7648781
    },
    "key": "-LPQobUtNtied3PgAVeU"
  },
  {
    "name": "Pluit Village (D/H. Mega Mal Pluit) No. 34-35-36",
    "address": "Jl. Pluit Permai (Hadap Utara), Jakarta Utara",
    "city": "Jakarta",
    "location": {
      "lat": 6.1167476,
      "lng": 106.7889175
    },
    "key": "-LPQobUv6HzEayh1PB6-"
  },
  {
    "name": "Ged. Gading Marina - Ballroom",
    "address": "Jl. Boulevard Barat Raya No. 1, Kelapa Gading, Jakarta Utara",
    "location": {
      "lat": -6.155269,
      "lng": 106.895349
    },
    "city": "Jakarta",
    "key": "-LPQobUx7Tqw3RgEVZbr"
  },
  {
    "name": "Hotel Ciputra Lt. 6, DIAN BALLROOM",
    "address": "Jl. Jend. S Parman, Jakarta Barat",
    "city": "Jakarta",
    "location": {
      "lat": -6.168163,
      "lng": 106.7864179
    },
    "key": "-LPQobUz6SDqyt7A-XU0"
  },
  {
    "name": "Tiberias Cempaka Mas",
    "address": "Komplek Cempaka Mas blok E No 8-9 Jl. Letjen Suprapto, Jakarta",
    "city": "Jakarta",
    "key": "-LPQobV0JpH982Ys9tt0"
  },
  {
    "name": "Mangga Dua Square Lt. Basement 2",
    "address": "Jl. Mangga Dua Raya, Jakarta Utara",
    "location": {
      "lat": -6.135609,
      "lng": 106.831035
    },
    "city": "Jakarta",
    "key": "-LPQobV46VvQ5RSrdhsu"
  },
  {
    "name": "Grand Duta Merlin Lt. 5, Ballroom",
    "address": "Jl. Gajah Mada No. 3-5, Jakarta Pusat",
    "city": "Jakarta",
    "location": {
      "lat": -6.165431,
      "lng": 106.819668
    },
    "key": "-LPQobV5wQ-cWpthea17"
  },
  {
    "name": "Ged. Cawang Kencana Lt. 7",
    "address": "Jl. Mayor Jendral Sutoyo (Samping Kodam V Jaya), Jakarta Timur",
    "city": "Jakarta",
    "location": {
      "lat": -6.254688,
      "lng": 106.8706622
    },
    "key": "-LPQobV6rzjSwVcDijgo"
  },
  {
    "name": "Puri Indah Financial Tower Lantai 2",
    "address": "(seberang Puri Indah Mall) Jl. Puri Lingkar Dalam Blok T8. Jakarta Barat",
    "location": {
      "lat": -6.188535,
      "lng": 106.736554
    },
    "city": "Jakarta",
    "key": "-LPQobV6HrSuu8EPN0i8"
  },
  {
    "name": "Wisma Dharmala Sakti (Intiland Tower) Podium Lt. 3",
    "address": "(Parkir Mobil Langsung ke Lt. P 5) Jl. Jend. Sudirman Kav. 32 Jakarta Pusat",
    "city": "Jakarta",
    "location": {
      "lat": -6.2141399,
      "lng": 106.8175789
    },
    "key": "-LPQobV7-B57IhTLmqFx"
  },
  {
    "name": "Ruko Gallery Niaga Mediterania 2",
    "address": "Blok L8 R - L8 S Pantai Indah Kapuk, Jakarta Utara",
    "city": "Jakarta",
    "location": {
      "lat": -6.116265900000001,
      "lng": 106.7685261
    },
    "key": "-LPQobV8wCMLTIqL0Co_"
  },
  {
    "name": "Ged. Hero Citra Garden Lt. 2",
    "address": "Komp. Citra Garden 2 Kalideres, Jakarta Barat",
    "location": {
      "lat": -6.142105,
      "lng": 106.707676
    },
    "city": "Jakarta",
    "key": "-LPQobV8BIvoBmZBB5-h"
  },
  {
    "name": "Mall of Indonesia Lt. P3-04",
    "address": "Jl. Boulevard Barat, Kelapa Gading",
    "city": "Jakarta",
    "location": {
      "lat": -6.151278999999999,
      "lng": 106.8923703
    },
    "key": "-LPQobV9VlzAMM6UaWL5"
  },
  {
    "name": "Mall Alam Sutera Lt. LG Blok AT/03 Tangerang",
    "address": "Mall Alam Sutera",
    "city": "Jakarta",
    "location": {
      "lat": -6.222168099999999,
      "lng": 106.6536279
    },
    "key": "-LPQobVAqy6aqkuc7I-u"
  },
  {
    "name": "Tiberias Mega Bekasi Hypermall Lt. 5",
    "address": "Jl. Jendral Ahmad Yani No. 1 Marga Jaya Bekasi - Jawa Barat",
    "location": {
      "lat": -6.2411,
      "lng": 106.969505
    },
    "city": "Jakarta",
    "key": "-LPQobVB74WBMgPWgZOa"
  },
  {
    "name": "Tiberias Center",
    "address": "Jl. Boulevard Raya Blok PD 1/20-22, Kelapa Gading",
    "city": "Jakarta",
    "location": {
      "lat": -6.161424999999999,
      "lng": 106.9044917
    },
    "key": "-LPQobVB1q3FyfYsowdd"
  },
  {
    "name": "Ruko CBD No. 15-19 Palem Semi, Karawaci (Seberang Giant), Tangerang",
    "address": "Ruko CBD",
    "city": "Jakarta",
    "location": {
      "lat": -6.2194208,
      "lng": 106.6145253
    },
    "key": "-LPQobVCsb1sJIqnGegv"
  },
  {
    "name": "Bekasi Cyber Park Lt.2 (Eks. Hero Plaza)",
    "address": "Jl. K. H. Noer Ali No. 177, Bekasi",
    "location": {
      "lat": -6.24664,
      "lng": 106.991674
    },
    "city": "Jakarta",
    "key": "-LPQobVDVLxqujG-3mQH"
  },
  {
    "name": "Dome of Tiberias",
    "address": "Kondonium Menara Kelapa Gading, Jakarta Utara",
    "city": "Jakarta",
    "location": {
      "lat": -6.168977299999999,
      "lng": 106.916071
    },
    "key": "-LPQobVE4Ic6mmoHofT_"
  },
  {
    "name": "Tiberias Teraskota Serpong Lt. 2 No. 7",
    "address": "Jl. Pahlawan Seribu, CBD Lot VIIB Lengkong Gudang BSD City, Serpong Tangerang - 15322",
    "city": "Jakarta",
    "location": {
      "lat": -6.295682099999999,
      "lng": 106.6674544
    },
    "key": "-LPQobVESjXfHb5lb6Z-"
  },
  {
    "name": "Bekasi Trade Center",
    "address": "J. H. Joyomartono Bulak Kapal, Bekasi Timur",
    "location": {
      "lat": -6.258466,
      "lng": 107.021133
    },
    "city": "Jakarta",
    "key": "-LPQobVFHOOOyoe3JyYr"
  },
  {
    "name": "Tiberias Kelapa Gading (Boulevard Selatan)",
    "address": "Jl. Boulevard Raya Blok WE 2/8 A, Jakarta Utara (Samping Nasari)",
    "city": "Jakarta",
    "location": {
      "lat": -6.161571,
      "lng": 106.904402
    },
    "key": "-LPQobVG_WTp0hdITp64"
  },
  {
    "name": "Tiberias Gading Serpong",
    "address": "Ruko Paramount Dotcom Blue Blok B No. 8, 9, 27, 28 CBD",
    "city": "Jakarta",
    "location": {
      "lat": -6.243056699999999,
      "lng": 106.6298916
    },
    "key": "-LPQobVGmSUX_6AFL6iI"
  },
  {
    "name": "Grand Mal Bekasi",
    "address": "Jl. Jend. Sudirman (Depan Koramil), Bekasi",
    "location": {
      "lat": -6.227849,
      "lng": 106.983644
    },
    "city": "Jakarta",
    "key": "-LPQobVHsdsrOYy8CeC3"
  },
  {
    "name": "Citra Inn Hotel International",
    "address": "Jl. Raya Cikarang Cibarusah (Perempatan Lampu Merah Lippo Cikarang), Bekasi, 17550",
    "city": "Jakarta",
    "location": {
      "lat": -6.3264309,
      "lng": 107.125082
    },
    "key": "-LPQobVI4Eg6wXmp_gZL"
  },
  {
    "name": "BSD Plaza Lt. 1",
    "address": "BSD City, Serpong, Tangerang",
    "city": "Jakarta",
    "location": {
      "lat": -6.2794515,
      "lng": 106.6627203
    },
    "key": "-LPQobVI-sZtn1YNk4tQ"
  },
  {
    "name": "Bekasi Junction Lt. 1 (Lotte Mart Proyek Bekasi)",
    "address": "Jl. Insinyur H. Juanda, Margahayu, 17113 Bekasi Timur",
    "location": {
      "lat": -6.241079,
      "lng": 107.003032
    },
    "city": "Jakarta",
    "key": "-LPQobVJ03x_enLGjdQs"
  },
  {
    "name": "Raden Saleh 14D",
    "address": "(Ged. Yayasan Kasih Bersaudara) Jl. Raden Saleh Raya No. 14 D, Jakarta Pusat",
    "city": "Jakarta",
    "location": {
      "lat": -6.192016,
      "lng": 106.8413911
    },
    "key": "-LPQobVJyMR-tuFHDvFl"
  },
  {
    "name": "Jayakarta Hotel Aula Fatahillah Lt. 2",
    "address": "Jln. Hayam Wuruk No. 126, Mangga Besar, Tamansari 11180",
    "location": {
      "lat": -6.147296,
      "lng": 106.817014
    },
    "city": "Jakarta",
    "key": "-LPQobVM0ODA5vtajFfj"
  },
  {
    "name": "Java Palace Hotel - Cikarang",
    "address": "Jl. Niaga Utara Kav 1-2, Jababeka II, Cikarang, Mekarmukti, Cikarang Utara, Bekasi, Jawa Barat 17530",
    "location": {
      "lat": -6.297204,
      "lng": 107.149126
    },
    "city": "Jakarta",
    "key": "-LPQobVN3Gt100X4cLH9"
  },
  {
    "name": "Depok Town Center Lt. 2 Ruang Toba",
    "address": "Jl. Sawangan Raya No. 1",
    "location": {
      "lat": -6.395399,
      "lng": 106.792674
    },
    "city": "Jakarta",
    "key": "-LPQobVNhH5xXSSSxr1v"
  },
  {
    "name": "Tiberias Cinere",
    "address": "Ruko Cinere Blok A No. 8-9, Jl. Cinere Raya",
    "location": {
      "lat": -6.323448,
      "lng": 106.784287
    },
    "city": "Jakarta",
    "key": "-LPQobVOyxNNiymc2R9K"
  },
  {
    "name": "Tiberias Bintaro",
    "address": "Bintaro Jaya Sektor VII Jl. Wahid Hasyim Blok FG 12/35, Depan Bank Niaga, Tangerang",
    "location": {
      "lat": -6.272971,
      "lng": 106.723636
    },
    "city": "Jakarta",
    "key": "-LPQobVOfThBZ3ZSA5h1"
  },
  {
    "name": "Ruko Boston Square",
    "address": "Blok RK 1 No. 42, 43, 45, 46 & 47 Kota Wisata, Cibubur",
    "location": {
      "lat": -6.352295,
      "lng": 106.963818
    },
    "city": "Jakarta",
    "key": "-LPQobVOB8KFodQ-xT49"
  },
  {
    "name": "Times Square Cibubur - Ruko Madison Blok C No. 43 A-B",
    "address": "Jl. Alternatif Cibubur",
    "location": {
      "lat": -6.379523,
      "lng": 106.91967
    },
    "city": "Jakarta",
    "key": "-LPQobVPsD9zI6sNHcGp"
  },
  {
    "name": "Taman Rekreasi Wiladatika, Ged. Tirta Teja Cibubur",
    "address": "(Sebelah Kolam Renang Tirta Teja) Jl. Jambore I Cibubur",
    "location": {
      "lat": -6.372132,
      "lng": 106.891657
    },
    "city": "Jakarta",
    "key": "-LPQobVPgysiWKlHYkwK"
  },
  {
    "name": "Ruko Little China Blok JD/17-18 Komp. Legenda Wisata - Cibubur",
    "address": "Kota Legenda Wisata Cibubur",
    "location": {
      "lat": -6.396133,
      "lng": 106.94305
    },
    "city": "Jakarta",
    "key": "-LPQobVQd8VOOtyOsRTn"
  },
  {
    "name": "Ruko Roxy Mas Blok D1 No. 23-25",
    "address": "Jl. KH. Hasyim Ashari",
    "location": {
      "lat": -6.167845,
      "lng": 106.802792
    },
    "city": "Jakarta",
    "key": "-LPQobVQtI5m7FNC4Y_x"
  },
  {
    "name": "Bioskop 21 Lt.2 \"Theatre 1\" Supermall Karawaci",
    "address": "Supermal Karawaci",
    "city": "Jakarta",
    "location": {
      "lat": -6.226962100000001,
      "lng": 106.6070653
    },
    "key": "-LPQobVRKnAMXiJmMNen"
  },
  {
    "name": "Bioskop 21 Lt.2 \"Theatre 2\" Supermal Karawaci",
    "address": "Supermal Karawaci",
    "city": "Jakarta",
    "location": {
      "lat": -6.226962100000001,
      "lng": 106.6070653
    },
    "key": "-LPQobVRVZgEawvCg2NH"
  },
  {
    "name": "Bioskop 21 Lt.2 \"Theatre 4\" Supermal Karawaci",
    "address": "Supermal Karawaci",
    "city": "Jakarta",
    "location": {
      "lat": -6.226962100000001,
      "lng": 106.6070653
    },
    "key": "-LPQobVS3nxeExJ30u7a"
  },
  {
    "name": "Podium Function Spaces Lippo Plaza Ekalokasari Lantai 5",
    "address": "Jl. Siliwangi No. 123 Bogor 16142",
    "city": "Jakarta",
    "location": {
      "lat": -6.621841,
      "lng": 106.818097
    },
    "key": "-LPQobVSZbG8rm1g892Y"
  },
  {
    "name": "Plaza Jambu Dua Lt. 4, Bogor",
    "address": "Jl. A. Yani No. 1",
    "key": "-LPQobVSSroRADu2MA4S"
  },
  {
    "name": "Ballroom Hotel Sarison Lt. 2",
    "address": "Jl. Perintis Kemerdekaan KM.13 No.78, Kapasa",
    "key": "-LPQobVTPT1_gWNR0hsp"
  },
  {
    "name": "Tiberias Toraja Aspol",
    "key": "-LPQobVTaQ53WFPe2gv_"
  },
  {
    "name": "Graha Tiberias",
    "address": "Jl. Veteran DL II No. 17",
    "city": "Banjarmasin",
    "location": {
      "lat": -3.321081,
      "lng": 114.601302
    },
    "key": "-LPQobU_ug_27pkzDcdm"
  },
  {
    "name": "Hotel Clarion",
    "address": "Jalan Andi Pangeran Pettarani No.3, Mannuruki, Tamalate",
    "city": "Makassar",
    "location": {
      "lat": -5.157223,
      "lng": 119.43714
    },
    "key": "-LPQobVVCKaw51DdBSfp"
  },
  {
    "name": "Hotel Singgasana (Talimbangan Room)",
    "address": "Jl. Kajaolaliddo No.16, Tallo, Ujung Pandang",
    "city": "Makassar",
    "location": {
      "lat": -5.135639,
      "lng": 119.410518
    },
    "key": "-LPQobVVKP4ZuDZPvpIt"
  },
  {
    "name": "Wisma Bungin, Toraja",
    "address": "Jl. Nusantara No. 6, Makale, Tana Toraja",
    "city": "Makassar",
    "location": {
      "lat": -2.981384,
      "lng": 119.899238
    },
    "key": "-LPQobVWqnH0OhE4UF89"
  },
  {
    "name": "Rest. Rahmat, Toraja",
    "address": "Jl. Ahmad Yani No. 100, Rantepao Toraja Utara",
    "city": "Makassar",
    "location": {
      "lat": -2.971447,
      "lng": 119.897893
    },
    "key": "-LPQobVWelraqjP_djDL"
  },
  {
    "name": "Restoran Mie Titi",
    "address": "Jl. Perintis Kemerdekaan KM. 15",
    "city": "Makassar",
    "location": {
      "lat": -5.095104,
      "lng": 119.512105
    },
    "key": "-LPQobVXtxOkDYaU5p3o"
  },
  {
    "name": "Kema, Gedung UD. Immanuel",
    "address": "Jl. Efraim No. 38",
    "key": "-LPQobVX477sK7eh6MdT"
  },
  {
    "name": "Tiberias Manado, Gedung Joang 45",
    "address": "Jl. Jendral Sudirman, Wenang Utara, Wenang, Kota Manado, Sulawesi Utara",
    "city": "Manado",
    "location": {
      "lat": 1.49029,
      "lng": 124.839724
    },
    "key": "-LPQobVYVtJrLjCC-3FM"
  },
  {
    "name": "Manado, Hotel Quality Lt. 2",
    "address": "alan Piere Tendean No. 88-89, Boulevard Manado, Sairo, Sario Tumpaan, Kota Manado, Sulawesi Utara",
    "city": "Manado",
    "location": {
      "lat": 1.464839,
      "lng": 124.828584
    },
    "key": "-LPQobVZLFp_4otWAWQT"
  },
  {
    "name": "Gereja Tiberias Bitung",
    "address": "Jln. Tangkisan Kelurahan Kadoodan Kecamatan Madidir, Bitung",
    "city": "Manado",
    "key": "-LPQobV_AChVgoyO8Wle"
  },
  {
    "name": "Graha Tiberias",
    "address": "Jl. Veteran DL II No. 17",
    "city": "Banjarmasin",
    "location": {
      "lat": -3.321081,
      "lng": 114.601302
    },
    "key": "-LPQobU_ug_27pkzDcdm"
  },
  {
    "name": "Tomohon, Gedung Garuda Showroom",
    "address": "Jl. Raya Tomohon, Kec. Walian",
    "city": "Manado",
    "location": {
      "lat": 1.3274584,
      "lng": 124.8387052
    },
    "key": "-LPQobV_UygLb3oenr3G"
  },
  {
    "name": "Airmadidi, Jen",
    "address": "Jl. Arnold Mononutu",
    "city": "Manado",
    "key": "-LPQobV_Aiskx_6LkFsM"
  },
  {
    "name": "Tondano, Hotel Tou Dano",
    "address": "Jl. Sam Ratulangi No. 304",
    "city": "Manado",
    "key": "-LPQobV_ZOQo06qGPhj_"
  },
  {
    "name": "Sonder, Aula DR. Litow Langi (Sendangan)",
    "address": "Kabupaten Minahasa",
    "city": "Manado",
    "location": {
      "lat": 1.259007,
      "lng": 124.77634
    },
    "key": "-LPQobV_FJAtMrax8m2j"
  },
  {
    "name": "Hotel Sutanraja Amurang",
    "address": "Jl. Raya Trans Sulawesi, Amurang Timur",
    "city": "Manado",
    "key": "-LPQobV_sq9nmkrBw5e3"
  },
  {
    "name": "Langowan, American Hall",
    "city": "Manado",
    "key": "-LPQobV_0V7PQAcuxqf5"
  },
  {
    "name": "Ratahan, Rest. New Green Garden",
    "address": "Nataan, Ratahan, Nataan, Minahasa Tenggara, Kabupaten Minahasa Tenggara, Sulawesi Utara",
    "city": "Manado",
    "location": {
      "lat": 1.068665,
      "lng": 124.812092
    },
    "key": "-LPQobV_gmTVNQmXvIbC"
  },
  {
    "name": "Kotamobagu, Hotel Tamasya Garden",
    "address": "Jalan Soetoyo No. 46",
    "city": "Manado",
    "location": {
      "lat": 0.735154,
      "lng": 124.307797
    },
    "key": "-LPQobV_sbNI8Pixfz63"
  },
  {
    "name": "Manado, Den Haag Convention Hall Lt. 2",
    "address": "Jl. Pogidon, Mahawu, Tuminting",
    "city": "Manado",
    "location": {
      "lat": 1.511496,
      "lng": 124.84793
    },
    "key": "-LPQobV_Xr2t3l8Wutrp"
  },
  {
    "name": "Hermes Palace Hotel Medan",
    "address": "Jl. Pemuda No. 22, Medan 20151, Sumatera Utara",
    "city": "Medan",
    "key": "-LPQobV_A3eIr87M0iz2"
  },
  {
    "name": "Hotel Grand Antares",
    "address": "Jl. Sisingamangaraja No.328, Siti Rejo I, Medan Kota",
    "city": "Medan",
    "location": {
      "lat": 3.557125,
      "lng": 98.694549
    },
    "key": "-LPQobV_stO7gL86espF"
  },
  {
    "name": "Pajus Padang Bulan Medan",
    "address": "Jl. Jamin Ginting No.378 Padang Bulan, Medan Baru, Kota Medan",
    "city": "Medan",
    "key": "-LPQobV_RMLQmf8PRNer"
  },
  {
    "name": "Gedung Gereja Tiberias Palangkaraya",
    "address": "Jl. Yos Sudarso VI, Palangka Raya",
    "city": "Palangkaraya",
    "location": {
      "lat": -2.222716,
      "lng": 113.891876
    },
    "key": "-LPQobV_pod4d6TZF3l2"
  },
  {
    "name": "Tiberias Pontianak",
    "address": "Jl. Wolter Monginsidi No. 44 - Pontianak",
    "city": "Pontianak",
    "location": {
      "lat": -0.028689,
      "lng": 109.337557
    },
    "key": "-LPQobV_r7FLZGM372mW"
  },
  {
    "name": "Hotel Borneo",
    "address": "Jl. Merdeka Barat No. 428 - Pontianak",
    "city": "Pontianak",
    "key": "-LPQobV_fxilmhvy1H9D"
  },
  {
    "name": "Grand Wahid Hotel",
    "address": "Salatiga 1 Lt. 1",
    "city": "Semarang",
    "key": "-LPQobV_3cOeWUPvSx5C"
  },
  {
    "name": "Metro International Sport Club Lt. 1",
    "address": "alan M.T. Haryono (Samping Java Mall)",
    "city": "Semarang",
    "location": {
      "lat": -6.981384,
      "lng": 110.431398
    },
    "key": "-LPQobV_WknXOctev1CP"
  },
  {
    "name": "PO HOTEL Lt. 7 Mall Paragon",
    "address": "Jl. Pemuda No.118, Sekayu, Semarang Tengah",
    "key": "-LPQobV_BWb3hRva3zhm"
  },
  {
    "name": "Tunjungan Plaza Lt. 6",
    "address": "Jl. Embong Malang No. 7-21, Unit PW-06 & PW-07",
    "city": "Surabaya",
    "location": {
      "lat": -7.263697,
      "lng": 112.740764
    },
    "key": "-LPQobV_yKd2ZXjZjZP0"
  },
  {
    "name": "Tiberias Graha SA Lt. 7",
    "address": "Graha S. A, Jl. Raya Gubeng No.19 - 21, Gubeng",
    "city": "Surabaya",
    "location": {
      "lat": -7.270285,
      "lng": 112.751222
    },
    "key": "-LPQobV_Dg5BzFW01l8p"
  },
  {
    "name": "Supermall Pakuwon Indah (SPI)",
    "address": "SPI Lantai 1 Blok TT - 27, 28&29",
    "city": "Surabaya",
    "location": {
      "lat": -7.287734,
      "lng": 112.675963
    },
    "key": "-LPQobV_0xrT6E08B8KU"
  },
  {
    "name": "ITC Mega Grosir",
    "address": "Jalan Gembong No. 20-30 BT-03A",
    "city": "Surabaya",
    "location": {
      "lat": -7.241138,
      "lng": 112.74663
    },
    "key": "-LPQobV_tTkXxWkWcqu4"
  },
  {
    "name": "Mega Galaxy",
    "address": "Jl. Raya Kertajaya Timur 16B / 11-12",
    "city": "Surabaya",
    "location": {
      "lat": -7.284707,
      "lng": 112.780701
    },
    "key": "-LPQobVo4F0O_W88SMTO"
  },
  {
    "name": "City Of Tomorrow (CITO)",
    "address": "Jl. Ahmad Yani No. 288 Blok FB-03",
    "city": "Surabaya",
    "location": {
      "lat": -7.344912,
      "lng": 112.728847
    },
    "key": "-LPQobVoqjOFrUO2Ow3e"
  },
  {
    "name": "Graha Pena",
    "address": "Jl. Ahmad Yani Siwalankerto No.88, Ketintang, Gayungan",
    "city": "Surabaya",
    "location": {
      "lat": -7.320156,
      "lng": 112.732224
    },
    "key": "-LPQobVorbagcvW7kSaP"
  },
  {
    "name": "Studio 1 XXI Ciputra World Lt. 4",
    "address": "Jl. Mayjen Sungkono No.89, Gn. Sari, Dukuh Pakis",
    "city": "Surabaya",
    "location": {
      "lat": -7.292782,
      "lng": 112.719212
    },
    "key": "-LPQobVorr9rnYIuHZoi"
  },
  {
    "name": "Studio 2 XXI CIPUTRA WORLD Lt. 4",
    "address": "Jl. Mayjen Sungkono No.89, Gn. Sari, Dukuh Pakis",
    "city": "Surabaya",
    "location": {
      "lat": -7.292782,
      "lng": 112.719212
    },
    "key": "-LPQobVobeOQ08CwPNHa"
  },
  {
    "name": "Raffles City Convention Center Lt. 4",
    "address": "2 Stamford Road Singapore 178882 (di atas City Hall MRT)",
    "city": "Raffles City",
    "location": {
      "lat": 1.29395,
      "lng": 103.853349
    },
    "key": "-LPQobVo7LZMk5MrveKR"
  }
]